City,Lat,Lng,Max Temp,Humidity,Cloudiness,Wind Speed,Country,Date
qaanaaq,77.484,-69.3632,16.09,65,60,7.76,GL,1630971841
ushuaia,-54.8,-68.3,44.26,76,40,12.66,AR,1630971754
riyadh,24.6877,46.7219,86.14,13,0,3.44,SA,1630971841
khatanga,71.9667,102.5,53.29,67,93,8.57,RU,1630971843
bluff,-46.6,168.3333,50.81,90,100,6.33,NZ,1630971843
rikitea,-23.1203,-134.9692,73.76,72,57,7.18,PF,1630971843
thinadhoo,0.5333,72.9333,82.99,73,100,12.53,MV,1630971844
port alfred,-33.5906,26.891,58.48,68,100,11.99,ZA,1630971844
hobart,-42.8794,147.3294,55.26,58,20,7.0,AU,1630971844
bengkulu,-3.8004,102.2655,74.39,93,98,5.77,ID,1630971845
zeya,53.75,127.2667,65.57,82,100,7.09,RU,1630971845
matara,5.9485,80.5353,77.54,89,100,11.25,LK,1630971846
jamestown,42.097,-79.2353,67.59,67,40,6.33,US,1630971828
mataura,-46.1927,168.8643,50.49,92,100,1.03,NZ,1630971846
cockburn town,21.4612,-71.1419,82.44,75,25,16.24,TC,1630971847
vardo,70.3705,31.1107,40.23,69,22,12.91,NO,1630971848
albany,42.6001,-73.9662,67.87,69,3,4.76,US,1630971587
zakamensk,50.3741,103.2863,39.79,88,100,2.53,RU,1630971849
wadi maliz,36.4681,8.5495,73.06,80,7,3.2,TN,1630971849
klyuchi,52.2667,79.1667,53.28,58,38,5.82,RU,1630971850
ginir,7.1333,40.7,60.33,73,84,7.23,ET,1630971850
bangkalan,-7.0455,112.7351,76.95,74,25,3.8,ID,1630971850
barrow,71.2906,-156.7887,37.42,75,90,4.61,US,1630971763
kahului,20.8947,-156.47,86.02,54,20,23.02,US,1630971851
vaini,-21.2,-175.2,80.76,83,20,10.36,TO,1630971851
denpasar,-8.65,115.2167,78.46,94,40,8.05,ID,1630971852
ketchikan,55.3422,-131.6461,58.41,85,100,4.43,US,1630971852
marienburg,54.0359,19.0266,53.89,65,100,6.76,PL,1630971853
padang,-0.9492,100.3543,73.45,94,99,8.68,ID,1630971853
akdepe,42.0551,59.3788,66.29,26,0,9.57,TM,1630971853
cotonou,6.3654,2.4183,78.78,89,40,11.5,BJ,1630971854
hilo,19.7297,-155.09,85.28,62,40,10.36,US,1630971453
atuona,-9.8,-139.0333,78.55,69,12,16.87,PF,1630971855
kavieng,-2.5744,150.7967,85.44,61,98,11.65,PG,1630971855
bar harbor,44.3876,-68.2039,62.74,90,90,8.99,US,1630971838
mantua,45.1667,10.7833,69.04,74,2,1.01,IT,1630971786
teahupoo,-17.8333,-149.2667,78.76,75,50,13.15,PF,1630971856
nikolskoye,59.7035,30.7861,51.69,98,100,4.05,RU,1630971856
norman wells,65.282,-126.8329,57.24,94,75,14.97,CA,1630971857
syracuse,37.0881,15.2792,71.89,71,8,10.33,IT,1630971857
buique,-8.6231,-37.1558,64.38,92,2,7.72,BR,1630971857
wana,32.2989,69.5725,77.56,57,0,2.73,PK,1630971858
christchurch,-43.5333,172.6333,66.4,39,39,17.27,NZ,1630971858
severo-kurilsk,50.6789,156.125,50.31,79,82,14.34,RU,1630971859
thompson,55.7435,-97.8558,66.36,63,75,4.61,CA,1630971859
tuatapere,-46.1333,167.6833,50.83,95,100,7.99,NZ,1630971860
castro,-24.7911,-50.0119,59.09,90,3,9.78,BR,1630971740
karratha,-20.7377,116.8463,70.63,17,13,21.94,AU,1630971860
deming,32.2687,-107.7586,91.29,27,90,6.91,US,1630971861
cidreira,-30.1811,-50.2056,62.71,84,49,20.83,BR,1630971861
northam,51.0333,-4.2167,68.02,91,5,6.76,GB,1630971863
ribeira grande,38.5167,-28.7,69.51,74,98,10.49,PT,1630971863
beringovskiy,63.05,179.3167,44.4,59,82,7.43,RU,1630971863
tasiilaq,65.6145,-37.6368,42.96,92,74,3.24,GL,1630971864
urgut,39.4022,67.2431,62.22,25,0,1.77,UZ,1630971864
amot,59.5714,7.9877,44.49,92,100,4.21,NO,1630971865
yellowknife,62.456,-114.3525,63.12,72,20,18.41,CA,1630971865
puerto ayora,-0.7393,-90.3518,68.14,81,89,10.6,EC,1630971588
krasnoselkup,65.7,82.4667,41.13,86,3,10.78,RU,1630971866
longyearbyen,78.2186,15.6401,37.24,65,75,13.8,SJ,1630971867
mareeba,-17.0,145.4333,72.48,69,48,10.27,AU,1630971867
chifeng,42.2683,118.9636,57.81,73,0,4.45,CN,1630971867
arrecife,28.963,-13.5477,78.87,78,20,17.27,ES,1630971868
dikson,73.5069,80.5464,42.96,92,100,16.2,RU,1630971868
peniche,39.3558,-9.3811,73.92,86,48,15.82,PT,1630971869
kondinskoye,59.6481,67.41,44.69,73,91,6.78,RU,1630971869
koungheul,13.9833,-14.8,79.29,81,100,7.09,SN,1630971869
punta arenas,-53.15,-70.9167,48.31,76,90,8.05,CL,1630971870
cape town,-33.9258,18.4232,52.21,71,0,13.8,ZA,1630971808
ahipara,-35.1667,173.1667,56.98,95,100,10.29,NZ,1630971871
gladstone,-23.85,151.25,69.73,43,1,14.97,AU,1630971871
mahebourg,-20.4081,57.7,70.09,68,40,18.41,MU,1630971872
kargasok,59.0556,80.8572,43.39,71,82,5.1,RU,1630971872
kontagora,10.3999,5.4695,72.25,94,78,3.94,NG,1630971872
saint-augustin,51.226,-58.6502,55.6,89,98,7.38,CA,1630971873
volcan,8.7667,-82.6333,64.74,97,100,1.54,PA,1630971873
abu dhabi,24.4667,54.3667,89.62,84,20,4.61,AE,1630971761
suksun,57.1431,57.3949,35.85,94,12,5.48,RU,1630971874
zadar,44.1197,15.2422,70.65,49,0,8.05,HR,1630971874
maniitsoq,65.4167,-52.9,41.54,80,64,9.1,GL,1630971620
chokurdakh,70.6333,147.9167,36.18,72,100,19.13,RU,1630971875
half moon bay,37.4636,-122.4286,103.32,53,40,9.22,US,1630971875
salalah,17.0151,54.0924,78.89,100,90,0.0,OM,1630971876
busselton,-33.65,115.3333,64.04,72,0,12.62,AU,1630971876
westport,41.1415,-73.3579,79.99,64,40,3.0,US,1630971876
zhezkazgan,47.8043,67.7144,61.29,39,0,8.57,KZ,1630971877
karatau,43.1667,70.4667,67.98,30,0,5.12,KZ,1630971877
edson,53.5835,-116.4356,68.14,30,20,9.22,CA,1630971735
fukue,32.6881,128.8419,79.16,94,75,1.14,JP,1630971878
batagay,67.6333,134.6333,49.44,78,99,0.96,RU,1630971878
arinos,-15.9169,-46.1056,80.46,24,3,1.81,BR,1630971879
lakatoro,-16.0999,167.4164,79.84,64,22,4.54,VU,1630971879
ticuantepe,12.0226,-86.2049,74.08,94,40,9.22,NI,1630971880
kormilovka,55.0026,74.1028,49.75,44,83,8.28,RU,1630971880
arkhara,49.4212,130.0842,65.43,63,100,10.98,RU,1630971880
butaritari,3.0707,172.7902,83.88,71,100,13.2,KI,1630971881
mecca,21.4267,39.8261,88.86,35,95,1.9,SA,1630971881
belmonte,-15.8631,-38.8828,75.7,87,1,10.11,BR,1630971882
siderno,38.2779,16.302,73.58,76,12,5.64,IT,1630971882
kodiak,57.79,-152.4072,54.59,83,48,5.82,US,1630971882
amapa,1.0,-52.0,70.86,99,99,2.44,BR,1630971883
brigg,53.552,-0.4921,65.03,89,86,2.3,GB,1630971883
fillan,63.6064,8.9696,57.38,93,100,7.67,NO,1630971884
deputatskiy,69.3,139.9,34.84,80,100,12.15,RU,1630971884
aklavik,68.2191,-135.0107,45.43,76,100,13.11,CA,1630971884
volosovo,59.4333,29.4833,50.56,99,100,4.81,RU,1630971885
tezu,27.9167,96.1667,74.93,94,78,4.03,IN,1630971885
champasak,14.75,106.0,73.94,99,100,1.86,LA,1630971886
doha,25.2867,51.5333,93.18,36,0,3.44,QA,1630971846
puerto colombia,10.9878,-74.9547,77.09,81,97,4.27,CO,1630971886
kapaa,22.0752,-159.319,84.52,66,40,4.0,US,1630971887
komsomolskiy,40.4272,71.7189,72.32,37,0,6.91,UZ,1630971887
kazachinskoye,57.6953,93.2761,41.18,83,27,2.93,RU,1630971887
cap malheureux,-19.9842,57.6142,70.29,68,86,8.99,MU,1630971888
bredasdorp,-34.5322,20.0403,42.12,87,0,3.44,ZA,1630971888
bethel,41.3712,-73.414,75.78,68,1,4.61,US,1630971888
hillsborough,37.5741,-122.3794,102.72,54,40,19.57,US,1630971889
dafeng,23.4517,108.5881,80.38,86,100,4.68,CN,1630971890
hamilton,39.1834,-84.5333,80.04,60,40,9.22,US,1630971797
hermanus,-34.4187,19.2345,50.9,76,10,8.9,ZA,1630971890
leningradskiy,69.3833,178.4167,38.01,57,73,4.47,RU,1630971891
orlik,52.5178,99.825,40.37,66,99,2.48,RU,1630971891
marawi,7.9986,124.2928,67.64,93,100,3.65,PH,1630971891
chuy,-33.6971,-53.4616,55.35,86,86,12.75,UY,1630971892
big bend,-26.8167,31.9333,67.62,76,100,4.76,SZ,1630971892
mizdah,31.4451,12.9801,68.16,85,0,4.18,LY,1630971893
florence,43.7667,11.25,67.68,55,0,5.75,IT,1630971893
dembi dolo,8.5333,34.8,55.18,84,57,3.44,ET,1630971894
port elizabeth,-33.918,25.5701,53.89,94,75,5.75,ZA,1630971894
manzil kamil,35.6248,10.6673,78.24,69,20,12.66,TN,1630971894
paarl,-33.7338,18.9752,51.12,86,0,6.91,ZA,1630971895
ulaangom,49.9811,92.0667,60.53,39,0,6.17,MN,1630971895
faanui,-16.4833,-151.75,79.12,74,19,15.39,PF,1630971896
brigantine,39.4101,-74.3646,78.01,68,4,6.4,US,1630971896
alice springs,-23.7,133.8833,54.95,47,0,21.85,AU,1630971896
illapel,-31.6308,-71.1653,50.16,88,23,3.38,CL,1630971897
arraial do cabo,-22.9661,-42.0278,70.99,86,28,9.55,BR,1630971681
sao filipe,14.8961,-24.4956,79.03,84,26,4.92,CV,1630971898
hithadhoo,-0.6,73.0833,82.44,72,100,10.96,MV,1630971898
chikwawa,-16.0335,34.8009,73.31,53,1,0.22,MW,1630971898
broome,42.2506,-75.833,64.58,87,11,1.01,US,1630971899
kruisfontein,-34.0033,24.7314,49.89,89,72,4.43,ZA,1630971899
lake station,41.575,-87.2389,77.49,61,1,10.36,US,1630971900
new norfolk,-42.7826,147.0587,54.9,62,94,5.99,AU,1630971900
saskylakh,71.9167,114.0833,44.1,80,77,9.86,RU,1630971901
aksu,41.1231,80.2644,68.85,32,0,2.3,CN,1630971901
kumluca,36.3703,30.2869,78.12,53,0,4.03,TR,1630971902
isiolo,0.3546,37.5822,66.04,71,6,9.33,KE,1630971902
banda aceh,5.5577,95.3222,78.19,82,42,3.33,ID,1630971902
byron bay,-28.65,153.6167,64.35,54,38,14.34,AU,1630971695
chernyshevskiy,63.0128,112.4714,46.4,72,100,5.32,RU,1630971904
portland,45.5234,-122.6762,86.7,34,20,1.99,US,1630971736
compiegne,49.4179,2.8261,69.1,72,62,4.52,FR,1630971905
sumbe,-11.2061,13.8437,70.81,88,10,3.94,AO,1630971905
mitsamiouli,-11.3847,43.2844,75.2,71,28,1.68,KM,1630971906
kosamba,21.4833,72.95,78.8,91,100,4.12,IN,1630971906
ust-kuyga,70.0167,135.6,39.7,74,100,11.25,RU,1630971907
iranshahr,27.2025,60.6848,88.75,29,14,4.59,IR,1630971907
gizo,-8.103,156.8419,82.4,74,98,10.31,SB,1630971907
geraldton,-28.7667,114.6,52.21,58,0,5.75,AU,1630971908
arteaga,18.4667,-102.4167,67.66,97,100,2.86,MX,1630971908
caravelas,-17.7125,-39.2481,74.64,89,0,8.08,BR,1630971909
nanortalik,60.1432,-45.2371,41.11,88,12,13.42,GL,1630971909
newport,51.5877,-2.9984,68.68,88,15,3.24,GB,1630971725
lebu,-37.6167,-73.65,47.89,87,94,4.76,CL,1630971910
kandalaksha,67.162,32.4123,35.1,90,51,5.08,RU,1630971910
mount gambier,-37.8333,140.7667,53.51,82,75,11.5,AU,1630971911
gobabis,-22.45,18.9667,52.57,25,0,10.54,NA,1630971911
hervey bay,-25.2986,152.8535,66.31,52,30,19.91,AU,1630971912
merthyr tydfil,51.7479,-3.3778,66.29,87,48,1.52,GB,1630971912
gushikawa,26.3544,127.8686,83.43,89,1,0.0,JP,1630971913
kaeo,-35.1,173.7833,60.33,92,100,7.45,NZ,1630971913
touros,-5.1989,-35.4608,76.1,76,31,14.9,BR,1630971913
pangnirtung,66.1451,-65.7125,41.67,77,26,3.83,CA,1630971914
celestun,20.8667,-90.4,79.0,83,100,6.02,MX,1630971914
coolum beach,-26.5333,153.1,67.33,43,0,13.31,AU,1630971915
venado tuerto,-33.7456,-61.9688,57.76,82,100,6.31,AR,1630971915
kerema,-7.9631,145.7785,79.45,79,99,1.45,PG,1630971915
iqaluit,63.7506,-68.5145,47.93,66,90,13.8,CA,1630971917
goderich,43.7501,-81.7165,67.91,59,10,6.91,CA,1630971918
sao jose da coroa grande,-8.8978,-35.1478,74.7,76,21,7.76,BR,1630971918
cabo san lucas,22.8909,-109.9124,90.81,72,15,9.91,MX,1630971918
urbano santos,-3.2078,-43.4036,77.83,79,62,7.45,BR,1630971919
tuktoyaktuk,69.4541,-133.0374,41.0,93,90,24.16,CA,1630971919
east london,-33.0153,27.9116,59.04,70,100,12.82,ZA,1630971919
havelock,34.8791,-76.9013,82.63,82,67,1.99,US,1630971913
juba,4.8517,31.5825,69.19,85,27,0.83,SS,1630971920
hoshcha,50.6003,26.6744,44.85,65,40,5.14,UA,1630971921
labytnangi,66.6572,66.4183,40.42,87,87,14.36,RU,1630971921
inhambane,-23.865,35.3833,69.75,91,5,7.02,MZ,1630971921
korla,41.7597,86.1469,70.74,29,0,1.57,CN,1630971922
cherskiy,68.75,161.3,33.19,87,100,18.14,RU,1630971923
saint-philippe,-21.3585,55.7679,67.55,78,52,14.54,RE,1630971923
banjar,-8.19,114.9675,78.66,74,61,3.83,ID,1630971924
faya,18.3851,42.4509,68.11,26,33,3.58,SA,1630971924
souillac,-20.5167,57.5167,70.18,68,40,18.41,MU,1630971924
katsuura,35.1333,140.3,71.64,64,74,17.11,JP,1630971925
gunnedah,-30.9833,150.25,55.02,65,0,4.0,AU,1630971925
tual,-5.6667,132.75,80.67,80,43,25.77,ID,1630971926
liku,-0.7275,119.8922,78.1,84,100,2.01,ID,1630971926
ankang,32.68,109.0172,68.5,95,100,0.78,CN,1630971927
husavik,66.0449,-17.3389,49.91,93,94,8.37,IS,1630971927
wilmington,34.2257,-77.9447,80.96,70,45,3.0,US,1630971437
saint-pierre,-21.3393,55.4781,67.64,70,20,5.75,RE,1630971928
ayorou,14.7308,0.9174,88.12,48,73,14.5,NE,1630971928
borger,52.9233,6.7931,60.82,91,97,3.13,NL,1630971929
nancha,47.1333,129.2667,63.19,61,100,1.92,CN,1630971929
tateyama,34.9833,139.8667,70.07,66,46,13.04,JP,1630971930
mar del plata,-38.0023,-57.5575,51.82,100,75,10.36,AR,1630971923
floro,61.5996,5.0328,57.96,100,90,17.27,NO,1630971930
guatire,10.4762,-66.5427,81.1,97,59,2.37,VE,1630971931
tutoia,-2.7619,-42.2744,79.23,80,55,12.39,BR,1630971931
lompoc,34.6391,-120.4579,93.34,65,1,14.97,US,1630971932
carnarvon,-24.8667,113.6333,51.87,82,7,3.44,AU,1630971932
zhanaozen,43.3,52.8,70.83,33,74,20.27,KZ,1630971933
saint george,37.1041,-113.5841,104.47,12,1,1.01,US,1630971933
omsukchan,62.5333,155.8,40.77,85,100,6.06,RU,1630971934
samarai,-10.6167,150.6667,79.34,71,87,17.98,PG,1630971934
cairns,-16.9167,145.7667,77.11,69,75,16.11,AU,1630971934
lavrentiya,65.5833,-171.0,37.62,92,100,3.38,RU,1630971935
vao,-22.6667,167.4833,69.39,77,4,8.93,NC,1630971935
lagoa,39.05,-27.9833,68.25,78,98,12.28,PT,1630971935
los llanos de aridane,28.6585,-17.9182,73.15,82,20,3.44,ES,1630971936
hofn,64.2539,-15.2082,52.75,88,100,2.35,IS,1630971936
vila velha,-20.3297,-40.2925,73.35,83,90,13.8,BR,1630971937
mana,5.6592,-53.7767,78.37,88,100,8.39,GF,1630971937
bourail,-21.5667,165.4833,75.04,64,54,10.4,NC,1630971938
qaqortoq,60.7167,-46.0333,46.9,79,21,4.45,GL,1630971938
camacha,33.0833,-16.3333,71.02,78,20,10.36,PT,1630971938
evreux,49.0241,1.1508,70.61,60,0,6.91,FR,1630971939
freeport,40.6576,-73.5832,80.78,48,1,8.99,US,1630971908
avarua,-21.2078,-159.775,77.05,73,75,16.11,CK,1630971939
codrington,-38.2667,141.9667,55.54,75,44,15.14,AU,1630971940
palana,59.1167,159.9667,46.24,53,64,4.21,RU,1630971940
okmulgee,35.6234,-95.9605,92.12,40,1,5.75,US,1630971941
esperance,-33.8667,121.9,51.64,49,0,21.0,AU,1630971941
christiansburg,37.1298,-80.4089,71.44,73,1,0.0,US,1630971906
ayan,56.45,138.1667,60.73,49,4,3.2,RU,1630971942
guayaramerin,-10.8368,-65.3614,83.93,49,87,2.64,BO,1630971943
nouakchott,18.0858,-15.9785,82.33,82,99,20.78,MR,1630971943
mahanoro,-19.9,48.8,66.43,84,58,2.98,MG,1630971944
sand,50.0,10.6,60.13,76,97,0.78,DE,1630971944
coahuayana,18.7333,-103.6833,78.08,92,100,2.21,MX,1630971945
black river,18.0264,-77.8487,86.0,77,7,2.01,JM,1630971945
sinnamary,5.3833,-52.95,79.03,83,93,9.35,GF,1630971946
handan,36.6006,114.4678,68.02,85,43,4.12,CN,1630971946
qandala,11.472,49.8728,90.43,50,98,5.86,SO,1630971946
vostok,46.4856,135.8833,66.16,56,100,0.58,RU,1630971947
alakurtti,66.9672,30.3491,43.63,95,100,2.93,RU,1630971947
czestochowa,50.7965,19.1241,52.56,64,88,6.17,PL,1630971677
upernavik,72.7868,-56.1549,30.13,71,85,9.17,GL,1630971948
capitao poco,-1.7464,-47.0594,73.92,90,69,6.08,BR,1630971948
san cristobal,7.7669,-72.225,68.18,98,49,2.77,VE,1630971949
okhotsk,59.3833,143.3,61.43,42,4,12.21,RU,1630971949
acapulco,16.8634,-99.8901,84.02,79,75,2.3,MX,1630971946
marfino,55.7028,37.3822,44.87,93,75,8.95,RU,1630971950
leeton,-34.5667,146.4,51.85,76,1,10.36,AU,1630971950
manaure,11.7751,-72.4445,84.9,68,64,18.72,CO,1630971950
buchanan,5.8808,-10.0467,75.61,90,95,3.47,LR,1630971951
ossora,59.2353,163.0719,51.48,52,89,3.87,RU,1630971951
fort morgan,40.2503,-103.8,95.65,8,1,11.5,US,1630971952
mocuba,-16.8392,36.9856,69.12,66,0,3.65,MZ,1630971952
maroantsetra,-15.4333,49.7333,68.65,89,87,3.38,MG,1630971952
yar-sale,66.8333,70.8333,43.07,77,99,19.6,RU,1630971953
bilibino,68.0546,166.4372,34.27,100,100,2.26,RU,1630971953
la ronge,55.1001,-105.2842,68.25,40,40,11.5,CA,1630971954
fort frances,48.5999,-93.4003,72.16,65,1,3.44,CA,1630971898
viedma,-40.8135,-62.9967,52.02,76,83,10.94,AR,1630971954
benguela,-12.5763,13.4055,70.07,88,44,3.44,AO,1630971955
oranjemund,-28.55,16.4333,50.27,75,0,11.27,NA,1630971955
havre-saint-pierre,50.2334,-63.5986,55.76,100,90,8.05,CA,1630971955
port hardy,50.6996,-127.4199,60.98,77,90,3.44,CA,1630971956
bonthe,7.5264,-12.505,76.71,89,74,7.92,SL,1630971956
pangody,65.85,74.4859,41.56,82,80,13.96,RU,1630971957
lasa,46.6166,10.7002,63.48,90,30,1.59,IT,1630971957
sitka,57.0531,-135.33,60.69,77,75,3.44,US,1630971851
abu kamal,34.4506,40.9171,83.39,30,0,7.92,SY,1630971958
clyde river,70.4692,-68.5914,32.22,71,80,2.01,CA,1630971958
mawlaik,23.6333,94.4167,74.19,99,53,0.78,MM,1630971958
georgetown,5.4112,100.3354,79.9,87,20,2.3,MY,1630971733
kuzino,57.0224,59.4412,33.85,98,9,4.29,RU,1630971959
puerto escondido,15.85,-97.0667,83.05,79,61,3.2,MX,1630971960
hasaki,35.7333,140.8333,70.2,60,67,17.29,JP,1630971960
provideniya,64.3833,-173.3,42.91,75,75,11.18,RU,1630971960
pervomayskoye,43.919,46.7102,55.67,90,100,9.4,RU,1630971961
ormara,25.2088,64.6357,79.14,90,26,8.43,PK,1630971961
zhigalovo,54.8097,105.1578,39.51,83,95,2.17,RU,1630971962
srednekolymsk,67.45,153.6833,37.51,85,100,11.72,RU,1630971962
najran,17.4924,44.1277,79.45,21,67,2.24,SA,1630971963
poum,-20.2333,164.0167,72.3,78,9,19.48,NC,1630971964
airai,-8.9266,125.4092,66.02,58,43,5.77,TL,1630971964
strezhevoy,60.7333,77.5889,40.98,75,14,5.77,RU,1630971964
saldanha,-33.0117,17.9442,48.25,73,0,14.5,ZA,1630971965
baracoa,20.3467,-74.4958,79.43,85,3,4.45,CU,1630971965
constitucion,-35.3333,-72.4167,48.99,83,29,1.9,CL,1630971965
gualaquiza,-3.4,-78.55,60.08,97,89,1.28,EC,1630971966
basco,20.4487,121.9702,84.02,76,86,12.37,PH,1630971966
anahuac,27.2333,-100.15,98.74,22,16,9.26,MX,1630971967
atbasar,51.8,68.3333,58.75,45,88,7.07,KZ,1630971967
bodden town,19.2833,-81.25,86.0,76,20,3.0,KY,1630971967
krasnozerskoye,53.9828,79.2374,50.09,83,29,6.51,RU,1630971968
vidalia,32.2177,-82.4135,86.11,61,1,0.0,US,1630971968
santa vitoria do palmar,-33.5189,-53.3681,55.76,86,85,12.86,BR,1630971969
verkhnyaya inta,65.9811,60.3094,39.29,94,100,20.22,RU,1630971969
olinda,-8.0089,-34.8553,74.93,69,20,6.91,BR,1630971969
myrtle beach,33.6891,-78.8867,82.45,77,90,9.22,US,1630971934
bredy,52.4153,60.3411,47.3,86,100,6.78,RU,1630971970
soyo,-6.1349,12.3689,72.84,86,100,6.13,AO,1630971970
fairbanks,64.8378,-147.7164,53.56,63,90,3.44,US,1630971780
aanekoski,62.6946,25.818,43.86,100,93,5.14,FI,1630971971
zionsville,39.9509,-86.2619,82.35,58,90,5.75,US,1630971972
acajutla,13.5928,-89.8275,97.14,82,76,7.7,SV,1630971972
college,64.8569,-147.8028,55.06,64,75,3.44,US,1630971953
port blair,11.6667,92.75,80.53,85,91,10.42,IN,1630971973
kamaishi,39.2667,141.8833,59.95,64,42,9.93,JP,1630971974
taoudenni,22.6783,-3.9836,97.7,10,2,10.96,ML,1630971974
evensk,61.95,159.2333,49.95,53,96,4.63,RU,1630971975
guerrero negro,27.9769,-114.0611,78.26,66,72,13.76,MX,1630971975
lufilufi,-13.8745,-171.5986,87.58,73,21,15.12,WS,1630971975
bathsheba,13.2167,-59.5167,81.21,78,20,5.75,BB,1630971976
havoysund,70.9963,24.6622,43.68,80,100,8.21,NO,1630971976
dalvik,65.9702,-18.5286,49.93,94,99,5.53,IS,1630971977
ilulissat,69.2167,-51.1,37.42,60,100,4.61,GL,1630971977
noyabrsk,63.1994,75.4507,43.7,76,51,13.44,RU,1630971978
tocopilla,-22.092,-70.1979,59.79,79,88,8.77,CL,1630971915
rocha,-34.4833,-54.3333,53.51,90,91,9.64,UY,1630971978
hirara,24.8,125.2833,84.47,84,75,2.3,JP,1630971979
churapcha,62.0025,132.4325,53.58,46,29,2.28,RU,1630971979
bambous virieux,-20.3428,57.7575,70.05,68,40,18.41,MU,1630971979
karacabey,40.2152,28.4038,68.38,63,58,17.72,TR,1630971980
pevek,69.7008,170.3133,31.44,93,99,3.87,RU,1630971980
angoche,-16.2325,39.9086,69.51,85,1,4.36,MZ,1630971980
lorengau,-2.0226,147.2712,82.87,78,97,9.48,PG,1630971981
beloha,-25.1667,45.05,66.56,55,0,7.49,MG,1630971981
bataipora,-22.2953,-53.2711,83.55,39,67,2.62,BR,1630971982
balabac,7.9868,117.0645,83.14,73,100,10.16,PH,1630971982
albion,42.2431,-84.753,74.64,60,1,0.0,US,1630971983
lere,10.387,8.5726,67.86,96,100,3.24,NG,1630971983
dao,11.3937,122.6856,74.84,95,100,3.31,PH,1630971984
horta,38.5333,-28.6333,68.49,76,98,9.8,PT,1630971984
marsa matruh,31.3525,27.2453,75.4,69,0,5.75,EG,1630971984
roald,62.5833,6.1333,61.11,82,90,12.66,NO,1630971985
manggar,-2.8833,108.2667,78.71,82,96,9.28,ID,1630971985
wanning,18.8003,110.3967,79.45,88,91,4.65,CN,1630971986
barra patuca,15.8,-84.2833,80.22,86,94,9.84,HN,1630971986
orocue,4.7912,-71.3354,76.06,91,83,6.4,CO,1630971987
solnechnyy,50.7214,136.6319,65.3,74,100,3.13,RU,1630971972
san patricio,28.017,-97.5169,97.21,53,47,12.86,US,1630971987
torbay,47.6666,-52.7314,53.67,88,75,11.5,CA,1630971988
zapote,21.0667,-102.8,67.87,79,99,2.82,MX,1630971988
kimbe,-5.5502,150.1429,85.39,68,96,4.07,PG,1630971989
terra santa,-2.1042,-56.4869,82.17,53,49,2.8,BR,1630971989
dharchula,29.85,80.5333,72.05,90,65,1.72,IN,1630971990
hualmay,-11.0964,-77.6139,62.42,85,86,11.25,PE,1630971990
mikhaylovka,50.06,43.2379,48.25,54,69,4.32,RU,1630971991
kaitangata,-46.2817,169.8464,52.05,74,96,0.74,NZ,1630971991
saint-louis,16.3333,-15.0,85.06,64,99,12.93,SN,1630971992
yarada,17.65,83.2667,77.32,100,90,6.91,IN,1630971992
adrar,20.5022,-10.0711,94.66,10,2,8.61,MR,1630971993
kalmunai,7.4167,81.8167,79.47,73,100,2.89,LK,1630971993
san carlos del zulia,9.0,-71.9135,77.95,83,32,5.75,VE,1630971993
burns lake,54.2331,-125.7533,62.02,48,100,8.34,CA,1630971994
ruidoso,33.3317,-105.673,80.46,33,20,0.0,US,1630971995
kolyubakino,55.668,36.5323,44.69,88,42,5.64,RU,1630971995
rawson,-43.3002,-65.1023,55.22,68,97,5.17,AR,1630971995
chaihe,44.7667,129.7,58.98,85,100,10.31,CN,1630971996
luwuk,-0.9516,122.7875,77.79,82,96,6.71,ID,1630971996
sotnikovo,51.8845,107.4791,41.09,93,75,0.0,RU,1630971996
sampang,-7.1872,113.2394,76.95,73,36,6.22,ID,1630971997
kochubey,44.3861,46.5825,56.88,82,100,8.88,RU,1630971997
ngerengere,-6.75,38.1167,70.45,88,85,2.21,TZ,1630971998
pacific grove,36.6177,-121.9166,101.16,75,1,5.99,US,1630971998
bandarbeyla,9.4942,50.8122,77.54,78,100,25.23,SO,1630971999
jinxiang,27.4327,120.6062,82.45,81,58,4.36,CN,1630971999
dudinka,69.4058,86.1778,47.35,93,69,10.83,RU,1630971999
bubaque,11.2833,-15.8333,80.24,84,100,12.91,GW,1630972000
vestmannaeyjar,63.4427,-20.2734,52.9,84,100,9.28,IS,1630972000
belen,36.4891,36.2233,71.02,69,0,14.97,TR,1630972001
klaksvik,62.2266,-6.589,56.32,96,100,16.37,FO,1630971972
sciacca,37.5082,13.0881,71.02,68,0,4.5,IT,1630972002
malangali,-8.5667,34.85,60.03,75,17,10.38,TZ,1630972002
nizhnyaya tavda,57.6731,66.1725,44.01,95,100,3.65,RU,1630972002
aromashevo,56.8602,68.6375,47.64,80,100,7.52,RU,1630972003
amahai,-3.3333,128.9167,77.05,92,100,9.15,ID,1630972003
tiksi,71.6872,128.8694,39.65,86,100,13.22,RU,1630971988
bosaso,11.2842,49.1816,93.34,40,85,11.83,SO,1630972004
kalabo,-14.97,22.6814,66.94,26,1,6.38,ZM,1630972005
dubbo,-32.25,148.6167,51.93,76,0,2.3,AU,1630971748
marsh harbour,26.5412,-77.0636,84.67,65,15,7.49,BS,1630972005
ifakara,-8.1333,36.6833,71.64,72,54,5.68,TZ,1630972006
shingu,33.7333,135.9833,77.99,86,100,6.91,JP,1630971991
artemisa,22.814,-82.7561,75.38,88,88,4.81,CU,1630972007
palmer,42.1584,-72.3287,72.77,67,28,4.54,US,1630972008
kemlya,54.6963,45.2424,38.07,73,40,4.99,RU,1630972008
dingle,10.9995,122.6711,75.18,95,100,1.41,PH,1630972009
coquimbo,-29.9533,-71.3436,56.93,76,20,12.66,CL,1630971921
wadi musa,30.3222,35.4793,63.81,66,0,3.8,JO,1630972009
umarkot,25.3616,69.7362,85.6,67,100,10.45,PK,1630972009
tahe,52.3333,124.7333,57.42,99,100,2.51,CN,1630972010
rexburg,43.826,-111.7897,89.11,12,1,16.11,US,1630971767
port hedland,-20.3167,118.5667,71.65,10,13,17.27,AU,1630972011
pillaro,-1.1667,-78.5333,50.14,93,99,1.77,EC,1630972011
imeni morozova,59.9757,31.0376,51.84,97,100,5.06,RU,1630972011
aksum,14.1245,38.7244,56.41,90,85,2.21,ET,1630972012
luebo,-5.35,21.4167,76.15,53,41,2.39,CD,1630972012
alghero,40.5589,8.3181,69.89,78,0,4.61,IT,1630972013
zanjan,36.6736,48.4787,60.1,78,0,7.45,IR,1630972013
namatanai,-3.6667,152.4333,84.36,63,100,6.73,PG,1630972013
narsaq,60.9167,-46.05,46.62,74,25,1.95,GL,1630972001
haines junction,60.7522,-137.5108,62.55,45,95,10.36,CA,1630972014
flinders,-34.5833,150.8552,65.17,32,0,10.0,AU,1630972007
sao carlos,-22.0175,-47.8908,70.63,56,1,11.9,BR,1630971937
surin,14.8818,103.4936,77.38,91,100,5.66,TH,1630972015
ponta do sol,32.6667,-17.1,73.13,76,39,6.62,PT,1630972016
victoria,22.2855,114.1577,85.32,82,94,1.01,HK,1630971890
moscow,55.7522,37.6156,45.14,74,61,7.65,RU,1630971881
howard springs,-12.497,131.047,76.87,34,3,15.9,AU,1630972016
nanning,22.8167,108.3167,79.25,86,77,7.54,CN,1630971778
aitape,-3.1374,142.3475,79.97,84,100,1.3,PG,1630972017
odweyne,9.4092,45.064,77.74,47,92,15.12,SO,1630972018
santa rosa,14.3122,121.1114,81.86,80,62,3.11,PH,1630972018
skawina,49.9752,19.8287,52.12,93,0,1.14,PL,1630972019
eydhafushi,5.1033,73.0708,81.41,78,98,12.77,MV,1630972019
ginda,30.6945,78.4932,63.48,88,8,4.36,IN,1630972019
omboue,-1.5746,9.2618,75.06,80,84,7.14,GA,1630972020
lata,40.1629,-8.3327,73.81,78,41,4.12,PT,1630972020
kautokeino,69.0125,23.0412,41.67,88,96,3.89,NO,1630972021
pappadatai,39.3133,20.7925,70.65,54,19,6.51,GR,1630972021
isangel,-19.55,169.2667,78.91,69,20,5.75,VU,1630971983
atocha,-20.9333,-66.2333,53.38,30,29,7.81,BO,1630972022
waingapu,-9.6567,120.2641,81.43,67,20,17.52,ID,1630972022
paamiut,61.994,-49.6678,41.5,67,47,3.87,GL,1630972018
imeni poliny osipenko,52.4201,136.4853,61.79,77,97,4.74,RU,1630972023
carballo,43.213,-8.691,67.55,98,89,4.16,ES,1630972023
kholmogory,64.2229,41.656,41.11,91,100,0.94,RU,1630972024
makakilo city,21.3469,-158.0858,86.32,54,75,14.97,US,1630972024
tilichiki,60.4667,166.1,47.8,43,98,5.82,RU,1630972025
arman,59.7,150.1667,55.38,44,62,1.41,RU,1630971984
san-pedro,4.7485,-6.6363,74.7,93,43,5.12,CI,1630972025
swellendam,-34.0226,20.4417,41.38,82,17,3.04,ZA,1630972026
buin,-33.7333,-70.75,51.84,58,93,2.89,CL,1630972026
oranjestad,12.524,-70.027,84.15,74,40,16.11,AW,1630971951
mulanje,-16.0316,35.5,67.75,49,1,2.57,MW,1630972027
sovetskiy,61.3614,63.5842,36.43,91,15,5.66,RU,1630972027
felanitx,39.4696,3.1483,74.14,71,92,3.04,ES,1630972028
fortuna,40.5982,-124.1573,71.85,72,1,1.01,US,1630971977
vorotynets,56.0603,45.8633,37.02,80,61,6.87,RU,1630972028
hami,42.8,93.45,75.25,19,14,4.88,CN,1630972029
kysyl-syr,63.8986,122.7617,50.13,56,71,3.36,RU,1630971997
gornopravdinsk,60.05,69.9,47.43,75,100,8.14,RU,1630972029
aykhal,66.0,111.5,51.8,38,1,2.48,RU,1630972030
ostersund,63.1792,14.6357,50.45,93,100,5.75,SE,1630972030
birjand,32.8663,59.2211,64.87,19,0,6.91,IR,1630972031
santa cruz,-17.8,-63.1667,86.05,62,75,17.27,BO,1630972031
jalu,29.0331,21.5482,81.59,48,14,15.39,LY,1630972032
seoul,37.5683,126.9778,67.57,91,90,8.05,KR,1630972032
maragogi,-9.0122,-35.2225,74.32,77,23,7.43,BR,1630972033
sisimiut,66.9395,-53.6735,42.94,79,100,25.08,GL,1630972033
sao joao da barra,-21.6403,-41.0511,71.94,86,1,14.65,BR,1630972033
hearst,49.6835,-83.6665,59.25,77,100,4.25,CA,1630972034
mokhotlong,-29.2894,29.0675,46.4,91,81,6.87,LS,1630972034
shakawe,-18.3667,21.85,70.27,28,35,5.23,BW,1630972035
ouadda,8.0777,22.4007,67.33,99,100,3.98,CF,1630972035
mehamn,71.0357,27.8492,37.38,79,36,2.89,NO,1630972036
asau,46.4333,26.4,47.32,64,17,2.26,RO,1630972036
kisangani,0.5167,25.2,69.01,99,90,3.02,CD,1630972036
taonan,45.3333,122.7833,58.32,85,47,3.96,CN,1630972037
meghri,38.9029,46.2446,64.58,88,3,5.28,AM,1630972037
abu samrah,35.3029,37.1841,71.11,71,0,6.82,SY,1630972038
slavsk,55.0425,21.677,52.41,70,100,5.35,RU,1630972038
fernie,49.5,-115.0687,76.6,19,99,6.67,CA,1630971927
pangoa,-12.1167,-73.0,68.7,94,69,3.11,PE,1630972039
visby,57.6409,18.296,54.86,93,75,6.91,SE,1630972039
akyab,20.15,92.9,79.75,87,66,13.67,MM,1630972040
nazarovo,56.0064,90.3914,43.48,68,0,3.29,RU,1630972040
bowen,-20.0167,148.2333,71.82,54,0,20.62,AU,1630972040
gao,16.6362,1.637,92.03,31,65,14.61,ML,1630972041
krasnokamsk,58.0802,55.7541,35.76,96,79,4.61,RU,1630972041
afonso bezerra,-5.4983,-36.5056,76.15,67,17,22.73,BR,1630972042
mitu,1.1983,-70.1733,72.28,99,98,2.53,CO,1630972042
gat,31.61,34.7642,75.9,71,0,4.18,IL,1630972043
caetite,-14.0694,-42.475,77.56,35,47,6.64,BR,1630972043
muros,42.7762,-9.0603,66.7,94,98,5.99,ES,1630972043
lumsden,50.6501,-104.8678,70.77,47,40,11.45,CA,1630971917
broken hill,-31.95,141.4333,53.31,66,1,12.66,AU,1630972044
vakhrushev,48.9833,142.9667,60.15,75,39,3.06,RU,1630972045
pocone,-16.2567,-56.6228,88.93,20,25,0.65,BR,1630972045
ketou,7.3633,2.5998,73.36,97,97,1.59,BJ,1630972046
chiang kham,19.5233,100.3,75.11,96,84,1.05,TH,1630972046
karabash,55.4808,60.2157,36.16,92,6,3.8,RU,1630972046
tolaga bay,-38.3667,178.3,58.17,75,89,15.59,NZ,1630972047
yulara,-25.2406,130.9889,53.44,40,0,14.97,AU,1630972033
great falls,47.5002,-111.3008,85.93,17,1,20.71,US,1630972047
kudahuvadhoo,2.6708,72.8944,82.24,74,97,13.18,MV,1630972048
mashhad,36.297,59.6062,68.14,49,0,4.61,IR,1630972048
arona,28.0996,-16.681,70.83,81,20,4.61,ES,1630972049
stokmarknes,68.5646,14.9108,52.5,96,100,5.95,NO,1630972049
ous,60.9058,61.5186,34.92,95,17,5.55,RU,1630972050
naryan-mar,67.6713,53.087,42.06,93,100,12.37,RU,1630972050
saint anthony,45.0205,-93.218,79.03,47,1,5.01,US,1630972050
itarema,-2.9248,-39.9167,78.12,80,24,17.58,BR,1630972049
bontang,0.1333,117.5,78.31,83,86,8.3,ID,1630972051
alofi,-19.0595,-169.9187,84.09,65,0,9.22,NU,1630972052
finschhafen,-6.6024,147.8681,76.46,89,100,9.28,PG,1630972052
grand-santi,4.25,-54.3833,73.42,99,100,3.31,GF,1630972052
ondarroa,43.3167,-2.4167,84.49,58,100,7.96,ES,1630972053
nuevo progreso,23.1667,-97.95,87.55,62,75,4.0,MX,1630972055
port lincoln,-34.7333,135.8667,57.27,68,16,2.62,AU,1630971916
ati,13.2154,18.3353,76.66,79,95,8.05,TD,1630972057
ono,34.85,134.9333,76.48,66,100,3.38,JP,1630972057
lebork,54.5392,17.7501,54.91,62,99,5.32,PL,1630972057
birao,10.2849,22.7882,69.35,98,63,4.61,CF,1630972058
catuday,16.2923,119.8062,80.38,79,82,4.61,PH,1630972058
kupang,-10.1667,123.5833,82.98,65,40,18.41,ID,1630972022
morshansk,53.4435,41.8107,40.26,78,41,5.84,RU,1630972059
kiunga,-6.1219,141.2906,74.3,94,100,3.44,PG,1630972059
lashio,22.9333,97.75,68.16,100,95,0.56,MM,1630972060
randudongkal,-7.0981,109.3243,77.25,81,37,2.57,ID,1630972060
hobyo,5.3505,48.5268,77.02,83,100,21.81,SO,1630972008
tjaereborg,55.4646,8.5797,56.34,96,75,3.44,DK,1630972061
paranapanema,-23.3886,-48.7228,61.11,87,2,12.75,BR,1630972061
berlevag,70.8578,29.0864,39.2,74,20,5.95,NO,1630972062
kutum,14.2,24.6667,76.33,55,36,2.28,SD,1630972062
nioro,13.35,-15.75,77.23,92,100,6.33,GM,1630972063
sur,22.5667,59.5289,84.49,62,3,1.1,OM,1630972063
kavaratti,10.5669,72.642,81.45,81,96,18.23,IN,1630972063
stornoway,58.2093,-6.3865,60.93,94,90,10.36,GB,1630972064
alamosa,37.4695,-105.87,85.51,13,1,4.61,US,1630972064
sakakah,29.9697,40.2064,87.37,23,1,9.19,SA,1630972065
kegums,56.7451,24.7244,53.1,84,100,5.75,LV,1630972065
impfondo,1.6381,18.0667,69.55,98,100,2.73,CG,1630972066
nizhniy ingash,56.2,96.53,45.88,64,100,3.31,RU,1630972066
pereslavl-zalesskiy,56.7393,38.8563,38.73,98,75,7.18,RU,1630972066
kusti,13.1629,32.6635,77.54,76,36,7.18,SD,1630972067
tazovskiy,67.4667,78.7,45.07,82,93,13.94,RU,1630972067
leshukonskoye,64.8989,45.7622,33.51,95,73,6.53,RU,1630972068
salta,-24.7859,-65.4117,72.19,61,20,4.61,AR,1630972068
honolulu,21.3069,-157.8583,87.62,58,40,1.01,US,1630971501
yekaterinovka,52.0508,44.3451,41.41,74,49,6.46,RU,1630972069
agadez,19.75,10.25,87.75,28,4,10.74,NE,1630972069
jizan,17.3333,42.6667,90.54,55,67,5.48,SA,1630972070
botwood,49.1499,-55.3482,58.89,90,84,6.69,CA,1630972070
tromso,69.6496,18.957,48.85,93,75,2.3,NO,1630972070
nemuro,43.3236,145.575,68.43,79,2,10.07,JP,1630972071
puerto del rosario,28.5004,-13.8627,78.55,73,0,12.66,ES,1630972071
barcelos,41.5388,-8.6151,70.29,93,64,5.12,PT,1630972072
goroka,-6.0834,145.3873,70.63,74,100,1.07,PG,1630972072
rantauprapat,2.1,99.8333,73.54,96,50,2.17,ID,1630972072
knysna,-34.0363,23.0471,52.18,75,83,3.89,ZA,1630972073
male,4.1748,73.5089,82.35,89,75,12.66,MV,1630972073
hambantota,6.1241,81.1185,79.23,82,100,16.37,LK,1630972074
urucui,-7.2294,-44.5561,85.32,38,25,4.68,BR,1630972074
harihar,14.5167,75.8,69.87,96,100,9.48,IN,1630972074
lermontovka,47.1453,134.3383,70.07,58,100,7.36,RU,1630972075
bay roberts,47.5999,-53.2648,54.34,90,81,5.82,CA,1630972076
topchikha,52.8192,83.1185,52.38,73,58,6.67,RU,1630972076
issaquah,47.5301,-122.0326,79.63,53,1,1.01,US,1630972076
mobaye,4.319,21.1786,68.68,99,100,2.48,CF,1630972077
samana,19.2056,-69.3369,82.36,85,31,5.21,DO,1630972078
viking,53.1001,-111.7684,71.08,29,12,15.12,CA,1630972078
corn island,12.1694,-83.0418,82.69,78,100,14.94,NI,1630972078
kushmurun,52.4503,64.6311,54.57,60,99,12.59,KZ,1630972079
yaan,7.3833,8.5667,71.91,95,100,3.96,NG,1630972079
damietta,31.4165,31.8133,78.69,70,0,8.7,EG,1630972080
sungaipenuh,-2.0833,101.3833,64.67,97,96,1.05,ID,1630972080
melilla,35.2937,-2.9383,75.58,83,0,2.3,ES,1630972081
san jose,37.3394,-121.895,103.28,16,40,5.99,US,1630971881
bairiki,1.3292,172.9752,87.8,66,40,17.27,KI,1630972081
kouango,4.9934,19.9619,69.76,98,100,3.0,CF,1630972082
vuktyl,63.8567,57.3094,40.14,89,100,12.68,RU,1630972082
elliot,-31.3333,27.85,41.23,95,100,4.0,ZA,1630972083
pacifica,37.6138,-122.4869,103.55,63,40,19.57,US,1630972083
aksarka,66.5606,67.7975,42.48,77,99,18.99,RU,1630972084
sorong,-0.8833,131.25,80.49,82,39,5.44,ID,1630972084
luderitz,-26.6481,15.1594,52.2,62,0,16.08,NA,1630971999
agirish,61.9247,63.0231,36.36,92,88,7.25,RU,1630972085
calabozo,8.9242,-67.4293,77.9,83,88,4.65,VE,1630972085
